{
  "resolvers":
  {
    "8.8.8.8":
      {
        "id": "r1",
        "ip": "8.8.8.8",
        "Name": "Google",
        "Location": [ 38, -122 ],
        "City": "Mountain View, CA",
        "Flag": "flags/United-States.png"
      },
    "8.8.4.4":
      {
        "id": "r2",
        "ip": "8.8.4.4",
        "Name": "Google",
        "Location": [ 38, -122 ],
        "City": "Mountain View, CA",
        "Flag": "flags/United-States.png"
      },
    "1.1.1.1":
      {
        "id": "r3",
        "ip": "1.1.1.1",
        "Name": "Cloudflare",
        "Location": [ 34.052230, -118.243680 ],
        "City": "Los Angeles, CA",
        "Flag": "flags/United-States.png"
      },
    "1.0.0.1":
      {
        "id": "r4",
        "ip": "1.0.0.1",
        "Name": "Cloudflare",
        "Location": [ 34.052230, -118.243680 ],
        "City": "Los Angeles, CA",
        "Flag": "flags/United-States.png"
      },
    "216.146.35.35":
      {
        "id": "r5",
        "ip": "216.146.35.35",
        "Name": "Dyn",
        "Location": [ 37.5324, -122.2488 ],
        "City": "Redwood City, CA",
        "Flag": "flags/United-States.png"
      },
    "216.146.36.36":
      {
        "id": "r6",
        "ip": "216.146.36.36",
        "Name": "Dyn",
        "Location": [ 37.5324, -122.2488 ],
        "City": "Redwood City, CA",
        "Flag": "flags/United-States.png"
      },
    "208.67.222.220":
      {
        "id": "r7",
        "ip": "208.67.222.220",
        "Name": "OpenDNS",
        "Location": [ 37.7757, -122.3952 ],
        "City": "San Francisco, CA",
        "Flag": "flags/United-States.png"
      },
    "208.67.222.222":
      {
        "id": "r8",
        "ip": "208.67.222.222",
        "Name": "OpenDNS",
        "Location": [ 37.7757, -122.3952 ],
        "City": "San Francisco, CA",
        "Flag": "flags/United-States.png"
      },
    "204.117.214.10":
      {
        "id": "r9",
        "ip": "204.117.214.10",
        "Name": "Sprint",
        "Location": [ 38.9260, -77.3973 ],
        "City": "Reston, VA",
        "Flag": "flags/United-States.png"
      },
    "9.9.9.9":
      {
        "id": "r10",
        "ip": "9.9.9.9",
        "Name": "Quad9",
        "Location": [ 37.8793, -122.2652 ],
        "City": "Berkeley, CA",
        "Flag": "flags/United-States.png"
      },
    "149.112.112.112":
      {
        "id": "r11",
        "ip": "149.112.112.112",
        "Name": "Quad9",
        "Location": [ 37.7970, -122.4627 ],
        "City": "San Francisco, CA",
        "Flag": "flags/United-States.png"
      },
    "64.6.65.6":
      {
        "id": "r12",
        "ip": "64.6.65.6",
        "Name": "Neustar",
        "Location": [ 38.9977, -77.4332 ],
        "City": "Sterling, VA",
        "Flag": "flags/United-States.png"
      },
    "200.221.11.100":
      {
        "id": "r13",
        "ip": "200.221.11.100",
        "Name": "Telefonica",
        "Location": [ -23.5475, -46.6361 ],
        "City": "Sao Paulo, SP, Brazil",
        "Flag": "flags/Brazil.png"
      },
    "158.43.128.1":
      {
        "id": "r14",
        "ip": "158.43.128.1",
        "Name": "Verizon UK",
        "Location": [ 51.5085, -0.1257 ],
        "City": "London, UK",
        "Flag": "flags/United-Kingdom.png"
      },
    "61.8.0.113":
    {
      "id": "r15",
      "ip": "61.8.0.113",
      "Name": "Telestra",
      "Location": [ -33.8679, 151.2073 ],
      "City": "Sydney, Australia",
      "Flag": "flags/Australia.png"
    },
    "119.160.80.164":
    {
      "id": "r16",
      "ip": "119.160.80.164",
      "Name": "Mobilink",
      "Location": [ 33.7215, 73.0433 ],
      "City": "Islamabad, Pakistan",
      "Flag": "flags/Pakistan.png"
    },
    "217.77.71.1":
    {
      "id": "r17",
      "ip": "217.77.71.1",
      "Name": "Gabon Telecom",
      "Location": [ 0.3925, 9.4537 ],
      "City": "Libreville, Gabon",
      "Flag": "flags/Gabon.png"
    },
    "194.25.0.60":
    {
      "id": "r18",
      "ip": "194.25.0.60",
      "Name": "Deutsche Telekom AG",
      "Location": [ 48.7823, 9.1770 ],
      "City": "Stuttgart, Germany",
      "Flag": "flags/Germany.png"
    },
    "172.104.49.100":
    {
      "id": "r19",
      "ip": "172.104.49.100",
      "Name": "Linode, LLC",
      "Location": [ 1.2897, 103.8501 ],
      "City": "Singapore",
      "Flag": "flags/Singapore.png"
    },
    "125.206.220.10":
    {
      "id": "r20",
      "ip": "125.206.220.10",
      "Name": "NTT Communications",
      "Location": [ 36.0330, 140.0670 ],
      "City": "Tsukuba, Japan",
      "Flag": "flags/Japan.png"
    },
    "180.76.76.76":
    {
      "id": "r21",
      "ip": "180.76.76.76",
      "Name": "Beijing Baidu Netcom Science and Technology",
      "Location": [ 39.9075, 116.3972 ],
      "City": "Beijing, China",
      "Flag": "flags/China.png"
    },
    "202.46.34.74":
    {
      "id": "r22",
      "ip": "202.46.34.74",
      "Name": "Shenzhen Sunrise Technology Co.",
      "Location": [ 22.5455, 114.0683 ],
      "City": "Shenzhen, China",
      "Flag": "flags/China.png"
    },
    "202.46.32.187":
    {
      "id": "r23",
      "ip": "202.46.32.187",
      "Name": "Shenzhen Sunrise Technology Co.",
      "Location": [ 22.5455, 114.0683 ],
      "City": "Shenzhen, China",
      "Flag": "flags/China.png"
    },
    "186.103.152.234":
    {
      "id": "r24",
      "ip": "186.103.152.234",
      "Name": "Telefonica Empresas",
      "Location": [ -33.4263, -70.5666 ],
      "City": "Santiago, Chile",
      "Flag": "flags/Chile.png"
    }
  }
}